[{"name":"モスバーガー大塚北口店","address":"東京都豊島区北大塚2-27-1","geo":{"results":[{"address_components":[{"long_name":"1","short_name":"1","types":["sublocality_level_4","sublocality","political"]},{"long_name":"27","short_name":"27","types":["sublocality_level_3","sublocality","political"]},{"long_name":"2 Chome","short_name":"2 Chome","types":["sublocality_level_2","sublocality","political"]},{"long_name":"Kitaōtsuka","short_name":"Kitaōtsuka","types":["sublocality_level_1","sublocality","political"]},{"long_name":"Toshima-ku","short_name":"Toshima-ku","types":["locality","political"]},{"long_name":"Tōkyō-to","short_name":"Tōkyō-to","types":["administrative_area_level_1","political"]},{"long_name":"Japan","short_name":"JP","types":["country","political"]},{"long_name":"170-0004","short_name":"170-0004","types":["postal_code"]}],"formatted_address":"2 Chome-27-1 Kitaōtsuka, Toshima-ku, Tōkyō-to 170-0004, Japan","geometry":{"location":{"lat":35.7323425,"lng":139.7299454},"location_type":"ROOFTOP","viewport":{"northeast":{"lat":35.7336914802915,"lng":139.7312943802915},"southwest":{"lat":35.73099351970851,"lng":139.7285964197085}}},"place_id":"ChIJAfhzXXaNGGARUzFG-zUMpmM","types":["sublocality_level_4","sublocality","political"]}],"status":"OK"}},{"name":"パスタハウス リコ （Pasta House Rico）","address":"東京都豊島区南大塚3-47-8 大塚赤尾ビル 1F","geo":{"results":[{"address_components":[{"long_name":"大塚赤尾ビル","short_name":"大塚赤尾ビル","types":["premise"]},{"long_name":"47","short_name":"47","types":["sublocality_level_3","sublocality","political"]},{"long_name":"3 Chome","short_name":"3 Chome","types":["sublocality_level_2","sublocality","political"]},{"long_name":"Minamiōtsuka","short_name":"Minamiōtsuka","types":["sublocality_level_1","sublocality","political"]},{"long_name":"Toshima-ku","short_name":"Toshima-ku","types":["locality","political"]},{"long_name":"Tōkyō-to","short_name":"Tōkyō-to","types":["administrative_area_level_1","political"]},{"long_name":"Japan","short_name":"JP","types":["country","political"]},{"long_name":"170-0005","short_name":"170-0005","types":["postal_code"]}],"formatted_address":"Japan, 〒170-0005 Tōkyō-to, Toshima-ku, Minamiōtsuka, 3 Chome−47 大塚赤尾ビル","geometry":{"bounds":{"northeast":{"lat":35.7299955,"lng":139.7280803},"southwest":{"lat":35.7298913,"lng":139.7279495}},"location":{"lat":35.7299453,"lng":139.7280115},"location_type":"ROOFTOP","viewport":{"northeast":{"lat":35.7312923802915,"lng":139.7293638802915},"southwest":{"lat":35.7285944197085,"lng":139.7266659197085}}},"partial_match":true,"place_id":"ChIJZxH_GHSNGGARberZj_99Qfs","types":["premise"]}],"status":"OK"}},{"name":"ドトールコーヒーショップ 大塚南口店","address":"東京都豊島区南大塚3-53-5","geo":{"results":[{"address_components":[{"long_name":"5","short_name":"5","types":["sublocality_level_4","sublocality","political"]},{"long_name":"53","short_name":"53","types":["sublocality_level_3","sublocality","political"]},{"long_name":"3 Chome","short_name":"3 Chome","types":["sublocality_level_2","sublocality","political"]},{"long_name":"Minamiōtsuka","short_name":"Minamiōtsuka","types":["sublocality_level_1","sublocality","political"]},{"long_name":"Toshima-ku","short_name":"Toshima-ku","types":["locality","political"]},{"long_name":"Tōkyō-to","short_name":"Tōkyō-to","types":["administrative_area_level_1","political"]},{"long_name":"Japan","short_name":"JP","types":["country","political"]},{"long_name":"170-0005","short_name":"170-0005","types":["postal_code"]}],"formatted_address":"3 Chome-53-5 Minamiōtsuka, Toshima-ku, Tōkyō-to 170-0005, Japan","geometry":{"location":{"lat":35.7305038,"lng":139.7284233},"location_type":"ROOFTOP","viewport":{"northeast":{"lat":35.7318527802915,"lng":139.7297722802915},"southwest":{"lat":35.7291548197085,"lng":139.7270743197085}}},"place_id":"ChIJ-0GgIHSNGGARNyLegJ-ZUn8","types":["sublocality_level_4","sublocality","political"]}],"status":"OK"}},{"name":"日高屋 大塚南口店","address":"東京都豊島区南大塚2-46-3","geo":{"results":[{"address_components":[{"long_name":"3","short_name":"3","types":["sublocality_level_4","sublocality","political"]},{"long_name":"46","short_name":"46","types":["sublocality_level_3","sublocality","political"]},{"long_name":"2 Chome","short_name":"2 Chome","types":["sublocality_level_2","sublocality","political"]},{"long_name":"Minamiōtsuka","short_name":"Minamiōtsuka","types":["sublocality_level_1","sublocality","political"]},{"long_name":"Toshima-ku","short_name":"Toshima-ku","types":["locality","political"]},{"long_name":"Tōkyō-to","short_name":"Tōkyō-to","types":["administrative_area_level_1","political"]},{"long_name":"Japan","short_name":"JP","types":["country","political"]},{"long_name":"170-0005","short_name":"170-0005","types":["postal_code"]}],"formatted_address":"2 Chome-46-3 Minamiōtsuka, Toshima-ku, Tōkyō-to 170-0005, Japan","geometry":{"location":{"lat":35.731176,"lng":139.7295343},"location_type":"ROOFTOP","viewport":{"northeast":{"lat":35.73252498029149,"lng":139.7308832802915},"southwest":{"lat":35.7298270197085,"lng":139.7281853197085}}},"place_id":"ChIJg2xGfnaNGGAR9DbDu4XQTUo","types":["sublocality_level_4","sublocality","political"]}],"status":"OK"}},{"name":"七福 弁天庵 大塚駅南店","address":"東京都豊島区南大塚3-52-6 六栄ビル １Ｆ","geo":{"results":[{"address_components":[{"long_name":"六栄ビル","short_name":"六栄ビル","types":["premise"]},{"long_name":"5","short_name":"5","types":["sublocality_level_4","sublocality","political"]},{"long_name":"52","short_name":"52","types":["sublocality_level_3","sublocality","political"]},{"long_name":"3 Chome","short_name":"3 Chome","types":["sublocality_level_2","sublocality","political"]},{"long_name":"Minamiōtsuka","short_name":"Minamiōtsuka","types":["sublocality_level_1","sublocality","political"]},{"long_name":"Toshima-ku","short_name":"Toshima-ku","types":["locality","political"]},{"long_name":"Tōkyō-to","short_name":"Tōkyō-to","types":["administrative_area_level_1","political"]},{"long_name":"Japan","short_name":"JP","types":["country","political"]},{"long_name":"170-0005","short_name":"170-0005","types":["postal_code"]}],"formatted_address":"Japan, 〒170-0005 Tōkyō-to, Toshima-ku, Minamiōtsuka, 3 Chome−52−5 六栄ビル","geometry":{"bounds":{"northeast":{"lat":35.7303241,"lng":139.7286369},"southwest":{"lat":35.7301874,"lng":139.7284408}},"location":{"lat":35.7302741,"lng":139.7285403},"location_type":"ROOFTOP","viewport":{"northeast":{"lat":35.73160473029149,"lng":139.7298878302915},"southwest":{"lat":35.7289067697085,"lng":139.7271898697085}}},"partial_match":true,"place_id":"ChIJWwcaJHSNGGARMtP-GFt4CQU","types":["premise"]}],"status":"OK"}},{"name":"洋食GOTOO","address":"東京都豊島区南大塚3-54-1","geo":{"results":[{"address_components":[{"long_name":"1","short_name":"1","types":["sublocality_level_4","sublocality","political"]},{"long_name":"54","short_name":"54","types":["sublocality_level_3","sublocality","political"]},{"long_name":"3 Chome","short_name":"3 Chome","types":["sublocality_level_2","sublocality","political"]},{"long_name":"Minamiōtsuka","short_name":"Minamiōtsuka","types":["sublocality_level_1","sublocality","political"]},{"long_name":"Toshima-ku","short_name":"Toshima-ku","types":["locality","political"]},{"long_name":"Tōkyō-to","short_name":"Tōkyō-to","types":["administrative_area_level_1","political"]},{"long_name":"Japan","short_name":"JP","types":["country","political"]},{"long_name":"170-0005","short_name":"170-0005","types":["postal_code"]}],"formatted_address":"3 Chome-54-1 Minamiōtsuka, Toshima-ku, Tōkyō-to 170-0005, Japan","geometry":{"location":{"lat":35.7305149,"lng":139.728165},"location_type":"ROOFTOP","viewport":{"northeast":{"lat":35.73186388029149,"lng":139.7295139802915},"southwest":{"lat":35.72916591970849,"lng":139.7268160197085}}},"place_id":"ChIJTwuKn3aNGGARi4MhWMk3ihg","types":["sublocality_level_4","sublocality","political"]}],"status":"OK"}},{"name":"蔦や （つたや）","address":"東京都豊島区南大塚3-51-6","geo":{"results":[{"address_components":[{"long_name":"6","short_name":"6","types":["sublocality_level_4","sublocality","political"]},{"long_name":"51","short_name":"51","types":["sublocality_level_3","sublocality","political"]},{"long_name":"3 Chome","short_name":"3 Chome","types":["sublocality_level_2","sublocality","political"]},{"long_name":"Minamiōtsuka","short_name":"Minamiōtsuka","types":["sublocality_level_1","sublocality","political"]},{"long_name":"Toshima-ku","short_name":"Toshima-ku","types":["locality","political"]},{"long_name":"Tōkyō-to","short_name":"Tōkyō-to","types":["administrative_area_level_1","political"]},{"long_name":"Japan","short_name":"JP","types":["country","political"]},{"long_name":"170-0005","short_name":"170-0005","types":["postal_code"]}],"formatted_address":"3 Chome-51-6 Minamiōtsuka, Toshima-ku, Tōkyō-to 170-0005, Japan","geometry":{"location":{"lat":35.7300261,"lng":139.7284372},"location_type":"ROOFTOP","viewport":{"northeast":{"lat":35.73137508029149,"lng":139.7297861802915},"southwest":{"lat":35.7286771197085,"lng":139.7270882197085}}},"place_id":"ChIJ_RlDI3SNGGARgfn97ojZk-0","types":["sublocality_level_4","sublocality","political"]}],"status":"OK"}}]